{ "schools":[
  {
    "id": 1,
    "name": "MBAGATHI ROAD PRIMARY",
    "location": "DAGORETTI",
    "sub_location": "RIRUTA",
    "address": "KEMRI ROAD OFF MBAGATHI RD"
  },
  {
    "id": 2,
    "name": "NEMBU PRIMARY",
    "location": "DAGORETTI",
    "sub_location": "RIRUTA",
    "address": "MUTHAMA - KIKUYU RD"
  },
  {
    "id": 3,
    "name": "KAWANGWARE PRIMARY",
    "location": "DAGORETTI",
    "sub_location": "RIRUTA",
    "address": "KAWANGWARE NEAR CHIEF'S OFFICE"
  },
  {
    "id": 4,
    "name": "TOI PRIMARY",
    "location": "DAGORETTI",
    "sub_location": "RIRUTA",
    "address": "JOSEPH KANGETHE RD. NEAR WINNERS CHAPEL"
  },
  {
    "id": 5,
    "name": "RIRUTA HGM PRIMARY",
    "location": "DAGORETTI",
    "sub_location": "RIRUTA",
    "address": "NAIVASHA RD. AFTER PRECIOUS BLOOD RIRUTA"
  },
  {
    "id": 6,
    "name": "DAGORETTI MUSLIM PRIMARY",
    "location": "DAGORETTI",
    "sub_location": "RIRUTA",
    "address": "DAGORETTI MUSLIM - MUTHIORA ROAD"
  },
  {
    "id": 7,
    "name": "KINYANJUI ROAD PRIMARY",
    "location": "DAGORETTI",
    "sub_location": "RIRUTA",
    "address": "RIRUTA SATELLITE - KINYANJUI ROAD"
  },
  {
    "id": 8,
    "name": "JOSEPH KANGETHE PRIMARY",
    "location": "DAGORETTI",
    "sub_location": "RIRUTA",
    "address": "WOODLEY - BEFORE JOSEPH KANGETHE RD."
  },
  {
    "id": 9,
    "name": "JAMHURI PRIMARY",
    "location": "DAGORETTI",
    "sub_location": "RIRUTA",
    "address": "NGONG ROAD. NEXT TO UNIVERSITY OF NAIROBI KENYA SCIENCE CAMPUS"
  },
  {
    "id": 10,
    "name": "GATINA PRIMARY",
    "location": "DAGORETTI",
    "sub_location": "RIRUTA",
    "address": "KAWANGWARE GATINA"
  },
  {
    "id": 11,
    "name": "MUTUINI PRIMARY",
    "location": "DAGORETTI",
    "sub_location": "WAITHAKA",
    "address": "DAGORETTI MARKET ALONG MUCHUGIA RD"
  },
  {
    "id": 12,
    "name": "MUKARARA",
    "location": "DAGORETTI",
    "sub_location": "WAITHAKA",
    "address": "NEAR MUKARARA PCEA CHURCH"
  },
  {
    "id": 13,
    "name": "DAGORETTI GIRLS REHABILITATION",
    "location": "DAGORETTI",
    "sub_location": "WAITHAKA",
    "address": "ON BOUNDARY OF KIAMBU WEST & DAGORETTI DISTRICT AFTER MUHURI ROAD FORMER ROUTE 87"
  },
  {
    "id": 14,
    "name": "DAGORETTI SPECIAL SCHOOL",
    "location": "DAGORETTI",
    "sub_location": "WAITHAKA",
    "address": "CHILDREN CENTRE INSIDE THE FEED THE CHILDREN DAGORETTI MARKET"
  },
  {
    "id": 15,
    "name": "KAGIRA PRIMARY",
    "location": "DAGORETTI",
    "sub_location": "WAITHAKA",
    "address": "AFTER RUTHIMITU PRIMARY SCHOOL"
  },
  {
    "id": 16,
    "name": "KIRIGU PRIMARY",
    "location": "DAGORETTI",
    "sub_location": "WAITHAKA",
    "address": "DAGORETI - MUTUINI"
  },
  {
    "id": 17,
    "name": "RUTHIMITU PRIMARY",
    "location": "DAGORETTI",
    "sub_location": "WAITHAKA",
    "address": "RUTHIMITU"
  },
  {
    "id": 18,
    "name": "WAITHAKA SPECIAL SCHOOL",
    "location": "DAGORETTI",
    "sub_location": "WAITHAKA",
    "address": "MUTUINI - NEAR KIRIGU PRIMARY"
  },
  {
    "id": 19,
    "name": "DR. MUTHIORA PRIMARY",
    "location": "DAGORETTI",
    "sub_location": "WAITHAKA",
    "address": "MUTUINI"
  },
  {
    "id": 20,
    "name": "GITIBA PRIMARY",
    "location": "DAGORETTI",
    "sub_location": "WAITHAKA",
    "address": "BEFORE ST. JOSEPH CTHOLIC CHURCH"
  },
  {
    "id": 21,
    "name": "RIRUTA SATELLITE PRIMARY",
    "location": "DAGORETTI",
    "sub_location": "RIRUTA",
    "address": "RIRUTA SATELLITE"
  },
  {
    "id": 22,
    "name": "KABIRIA PRIMARY SCHOOL",
    "location": "DAGORETTI",
    "sub_location": "RIRUTA",
    "address": "OFF KABIRIA ROAD, WAITHAKA LOCATION"
  },
  {
    "id": 23,
    "name": "SHADRACK KIMALEL PRIMARY SCHOOL",
    "location": "DAGORETTI",
    "sub_location": "RIRUTA",
    "address": "KENYATTA GOLF COURSE NGUMMO LAINI SABA"
  },
  {
    "id": 24,
    "name": "NDURARUA PRIMARY",
    "location": "DAGORETTI",
    "sub_location": "RIRUTA",
    "address": "NDURARUA GROUNDS ON KINYANJUI ROAD"
  },
  {
    "id": 25,
    "name": "UPPER HILL DAY NURSERY",
    "location": "DAGORETTI",
    "sub_location": "RIRUTA",
    "address": "UPPER HILL AREA ALONG ELGON ROAD"
  },
  {
    "id": 26,
    "name": "UMOJA PRIMARY",
    "location": "EMBAKASI",
    "sub_location": "DANDORA",
    "address": "UMOJA ESTATE PHASE I ALONG MOI DRIVE ROAD"
  },
  {
    "id": 27,
    "name": "RONALD NGALA PRIMARY",
    "location": "EMBAKASI",
    "sub_location": "DANDORA",
    "address": "DANDORA PHASE IV/V"
  },
  {
    "id": 28,
    "name": "USHIRIKA PRIMARY",
    "location": "EMBAKASI",
    "sub_location": "DANDORA",
    "address": "DANDORA PHASE V - NEXT TO RONALD NGALA PRIMARY"
  },
  {
    "id": 29,
    "name": "KARIOBANGI SOUTH PRIMARY",
    "location": "EMBAKASI",
    "sub_location": "DANDORA",
    "address": "KARIOBANGI SOUTH ALONG MUTARAKWA ROAD"
  },
  {
    "id": 30,
    "name": "TOM MBOYA PRIMARY",
    "location": "EMBAKASI",
    "sub_location": "DANDORA",
    "address": "DANDORA"
  },
  {
    "id": 31,
    "name": "GITUAMBA PRIMARY",
    "location": "EMBAKASI",
    "sub_location": "DANDORA",
    "address": "RUAI SEWAGE"
  },
  {
    "id": 32,
    "name": "PETER KIBUKOSYA PRIMARY",
    "location": "EMBAKASI",
    "sub_location": "DANDORA",
    "address": "UMOJA II ESTATE - SITE STAGE"
  },
  {
    "id": 33,
    "name": "ATHI PRIMARY",
    "location": "EMBAKASI",
    "sub_location": "DANDORA",
    "address": "5KM FROM MAIN KANGUNDO RD. IN NGUNDU/ATHI ZONE"
  },
  {
    "id": 34,
    "name": "RUAI PRIMARY",
    "location": "EMBAKASI",
    "sub_location": "DANDORA",
    "address": "ALONG KANGUNDO RD. AT RUAI SHOPPING CENTRE"
  },
  {
    "id": 35,
    "name": "JEHOVAH JIREH PRIMARY",
    "location": "EMBAKASI",
    "sub_location": "DANDORA",
    "address": "MAILI SABA"
  },
  {
    "id": 36,
    "name": "NGUNDU PRIMARY",
    "location": "EMBAKASI",
    "sub_location": "DANDORA",
    "address": "KAMULU - NGUNDU ALONG KANGUNDO RD."
  },
  {
    "id": 37,
    "name": "UNITY PRIMARY",
    "location": "EMBAKASI",
    "sub_location": "KAYOLE",
    "address": "UMOJA INNERCORE"
  },
  {
    "id": 38,
    "name": "UTAWALA ACADEMY",
    "location": "EMBAKASI",
    "sub_location": "KAYOLE",
    "address": "WITHIN ADMINISTRATION POLICE TRAINING COLLEGE - EMBAKASI"
  },
  {
    "id": 39,
    "name": "KAYOLE I PRIMARY",
    "location": "EMBAKASI",
    "sub_location": "KAYOLE",
    "address": "KAYOLE OFF KANGUNDO ROAD"
  },
  {
    "id": 40,
    "name": "TUMAINI PRIMARY",
    "location": "EMBAKASI",
    "sub_location": "KAYOLE",
    "address": "UMOJA II OFF MOI DRIVE"
  },
  {
    "id": 41,
    "name": "OUR LADY OF NAZARETH PRIMARY",
    "location": "EMBAKASI",
    "sub_location": "KAYOLE",
    "address": "MUKURU KWA NJENGA"
  },
  {
    "id": 43,
    "name": "MAUA PRIMARY",
    "location": "EMBAKASI",
    "sub_location": "KAYOLE",
    "address": "KANGUNDO ROAD - NJIRU COKAA BURUBURU FARM"
  },
  {
    "id": 44,
    "name": "VISIONS PRIMARY (MIHANG'O)",
    "location": "EMBAKASI",
    "sub_location": "KAYOLE",
    "address": "MIHANG'O LOCATION"
  },
  {
    "id": 45,
    "name": "EMBAKASI GARRISON PRIMARY",
    "location": "EMBAKASI",
    "sub_location": "KAYOLE",
    "address": "EMBAKASI GARRISON BARRACKS COMPUND ALONG TO UTAWALA"
  },
  {
    "id": 46,
    "name": "MWANGAZA PRIMARY",
    "location": "EMBAKASI",
    "sub_location": "KAYOLE",
    "address": "KAYOLE"
  },
  {
    "id": 47,
    "name": "EMBAKASI PRIMARY",
    "location": "EMBAKASI",
    "sub_location": "KAYOLE",
    "address": "EMBAKASI VILLAGE"
  },
  {
    "id": 48,
    "name": "THAWABU PRIMARY",
    "location": "EMBAKASI",
    "sub_location": "KAYOLE",
    "address": "KAYOLE"
  },
  {
    "id": 49,
    "name": "BONDENI PRIMARY",
    "location": "EMBAKASI",
    "sub_location": "KAYOLE",
    "address": "KAYOLE SOUTH NEXT TO KAYOLE CATHOLIC CHURCH - (DIVEN WORD PARISH)"
  },
  {
    "id": 50,
    "name": "KOMAROCK PRIMARY",
    "location": "EMBAKASI",
    "sub_location": "KAYOLE",
    "address": "KOMAROCK ESTATE OOF SPINE ROAD"
  },
  {
    "id": 51,
    "name": "KIFARU PRIMARY",
    "location": "EMBAKASI",
    "sub_location": "KAYOLE",
    "address": "UMOJA II - MOI DRIVE"
  },
  {
    "id": 52,
    "name": "EDELVALE PRIMARY",
    "location": "EMBAKASI",
    "sub_location": "KAYOLE",
    "address": "DOONHOLM PHASE V AT JACARANDA ESTATE ROUND ABOUT - TAKE THE EARTH ROAD"
  },
  {
    "id": 53,
    "name": "IMARA PRIMARY",
    "location": "EMBAKASI",
    "sub_location": "KAYOLE",
    "address": "KAYOLE SOWETO RD. OPP. KAYOLE CHIEF'S OFFICE - MUGENDI STAGE"
  },
  {
    "id": 54,
    "name": "DOONHOLM PRIMARY",
    "location": "EMBAKASI",
    "sub_location": "KAYOLE",
    "address": "DOONHOLM ESTATE NXT. TO RIKINA SUPERMARKETS"
  },
  {
    "id": 55,
    "name": "BUSARA PRIMARY",
    "location": "EMBAKASI",
    "sub_location": "DANDORA",
    "address": "UMOJA ESTATE - MOI DRIVE ROAD"
  },
  {
    "id": 56,
    "name": "A.E.F. REUBEN PRIMARY",
    "location": "EMBAKASI",
    "sub_location": "KAYOLE",
    "address": "OFF INTERPRISE AFTER HILL-LOCKS HOTEL IN REUBEN SLUMS"
  },
  {
    "id": 57,
    "name": "KWA NJENGA PRIMARY",
    "location": "EMBAKASI",
    "sub_location": "KAYOLE",
    "address": "KWA NJENGA WARD OFF AIRPORT ROAD AT A.A. OF KENYA HEADQUARTERS"
  },
  {
    "id": 58,
    "name": "DANDORA PRIMARY SCHOOL",
    "location": "EMBAKASI",
    "sub_location": "DANDORA",
    "address": "DANDORA PHASE ONE, ALONG KOMAROCK RD. OPP. SENIORS SCH, ADJACENT TO TOTAL PETROL STATION"
  },
  {
    "id": 59,
    "name": "SIMBA DAY NURSERY",
    "location": "EMBAKASI",
    "sub_location": "KAYOLE",
    "address": "UMOJA"
  },
  {
    "id": 60,
    "name": "MUGUMO DAY NURSERY",
    "location": "EMBAKASI",
    "sub_location": "KAYOLE",
    "address": "NEAR PETER KIBUKOSYA PRIMARY SCHOOL"
  },
  {
    "id": 61,
    "name": "MWANGAZA DAY NURSERY",
    "location": "EMBAKASI",
    "sub_location": "KAYOLE",
    "address": "NEAR PETER KIBUKOSYA PRIMARY SCHOOL"
  },
  {
    "id": 62,
    "name": "UNITY DAY NURSERY",
    "location": "EMBAKASI",
    "sub_location": "KAYOLE",
    "address": "UMOJA INNERCORE"
  },
  {
    "id": 63,
    "name": "UMOJA I DAY NURSERY",
    "location": "EMBAKASI",
    "sub_location": "DANDORA",
    "address": "IN UMOJA NEXT TO DIVISON OFFICE UMOJA I ESATE"
  },
  {
    "id": 64,
    "name": "ST. DOMINIC'S PRIMARY SCHOOL",
    "location": "EMBAKASI",
    "sub_location": "DANDORA",
    "address": "MWIKI"
  },
  {
    "id": 65,
    "name": "KAYOLE NORTH PRIMARY",
    "location": "EMBAKASI",
    "sub_location": "DANDORA",
    "address": "KAYOLE NORTH (MATOPENI) AREA NEAR KAYOLE POLICE STATION"
  },
  {
    "id": 66,
    "name": "KANGUNDO ROAD PRY",
    "location": "EMBAKASI",
    "sub_location": "DANDORA",
    "address": "MAMA LUCY KIBAKI HOSPITAL"
  },
  {
    "id": 67,
    "name": "JAMES GICHURU PRIMARY",
    "location": "EMBAKASI",
    "sublocation": "DANDORA",
    "address": "DANDORA PHASE II"
  },
  {
    "id": 68,
    "name": "WANGU PRIMARY",
    "location": "EMBAKASI",
    "sublocation": "DANDORA",
    "address": "OPPOSITE CO-OPERATIVE BANK ON MUIGAI KENYATTA ROAD"
  },
  {
    "id": 69,
    "name": "DRUMVALE PRIMARY",
    "location": "EMBAKASI",
    "sublocation": "DANDORA",
    "address": "KAMULU OFF KANGUNDO ROAD, SIR HENRY'S DRIVE - PEARL STREET(Drumvale)"
  },
  {
    "id": 70,
    "name": "NJIRU PRIMARY",
    "location": "EMBAKASI",
    "sublocation": "DANDORA",
    "address": "ON YOUR WAY TO MWIKI BETWEEN NJIRU CHIEF'S CAMP / D.Os OFFICE AND QUARRY"
  },
  {
    "id": 71,
    "name": "EASTLEIGH AIRPORT PRIMARY",
    "location": "KAMUKUNJI",
    "sublocation": "EASTLEIGH",
    "address": "2ND AVENUE OFF 3RD ST. NEXT TO MAINA WANJIGI SECONDARY"
  },
  {
    "id": 72,
    "name": "MUTHURWA PRIMARY",
    "location": "KAMUKUNJI",
    "sublocation": "BAHATI",
    "address": "ALONG SAKWA RD. NEXT TO KMC"
  },
  {
    "id": 73,
    "name": "UHURU ESTATE PRIMARY",
    "location": "KAMUKUNJI",
    "sublocation": "BAHATI",
    "address": "ON UHURU RD. NEXT TO UHURU SECONDARY"
  },
  {
    "id": 74,
    "name": "HESHIMA ROAD PRIMARY",
    "location": "KAMUKUNJI",
    "sublocation": "BAHATI",
    "address": "AMBIRA ROAD - MAKONGENI"
  },
  {
    "id": 75,
    "name": "OUR LADY OF MERCY GIRLS - SHAURI MOYO",
    "location": "KAMUKUNJI",
    "sublocation": "BAHATI",
    "address": "AMBIRA RD. OFF JOGOO ROAD"
  },
  {
    "id": 76,
    "name": "BAHATI UHURU PRIMARY",
    "location": "KAMUKUNJI",
    "sublocation": "BAHATI",
    "address": "HESHIMA AVENUE ZEMBAKASI CRESENT, ZEMBAKASI LANE"
  },
  {
    "id": 77,
    "name": "KIMATHI PRIMARY",
    "location": "KAMUKUNJI",
    "sublocation": "BAHATI",
    "address": "KIMATHI ESTATE"
  },
  {
    "id": 78,
    "name": "MORRISON PRIMARY",
    "location": "KAMUKUNJI",
    "sublocation": "BAHATI",
    "address": "BAHATI"
  },
  {
    "id": 79,
    "name": "DR. LIVINGSTONE PRIMARY",
    "location": "KAMUKUNJI",
    "sublocation": "BAHATI",
    "address": "JERUSALEM ESTATE"
  },
  {
    "id": 80,
    "name": "NAIROBI RIVER PRIMARY",
    "location": "KAMUKUNJI",
    "sublocation": "BAHATI",
    "address": "OUTERING RD. ESTATE OFF MUMIA SOUTH RD."
  },
  {
    "id": 81,
    "name": "NEW EASTLEIGH PRIMARY",
    "location": "KAMUKUNJI",
    "sublocation": "EASTLEIGH",
    "address": "EASTLEIGH NORTH"
  },
  {
    "id": 82,
    "name": "ZAWADI PRIMARY",
    "location": "KAMUKUNJI",
    "sublocation": "EASTLEIGH",
    "address": "EASTLEIGH SECTION 3 NEAR EASTMAT No. 4 BUS STAGE"
  },
  {
    "id": 83,
    "name": "MOI AIR BASE PRIMARY",
    "location": "KAMUKUNJI",
    "sublocation": "EASTLEIGH",
    "address": "KENYA AIR FORCE EASTLEIGH - NAIROBI"
  },
  {
    "id": 84,
    "name": "MOI FORCES ACADEMY",
    "location": "KAMUKUNJI",
    "sublocation": "EASTLEIGH",
    "address": "NEXT TO MOI AIR BASE - JUJA ROAD"
  },
  {
    "id": 85,
    "name": "ST. TERESA'S BOYS PRIMARY SCHOOL",
    "location": "KAMUKUNJI",
    "sublocation": "EASTLEIGH",
    "address": "WITHIN THE CATHOLIC CHURCH NEAR MLANGO KUBWA"
  },
  {
    "id": 86,
    "name": "BAHATI DAY NURSERY",
    "location": "KAMUKUNJI",
    "sublocation": "BAHATI",
    "address": "AT BAHATI SHOPPING CENTRE NEXT TO UHURU BAHATI PRIMARY SCHOOL"
  },
  {
    "id": 87,
    "name": "NEW PUMWANNI PRIMARY",
    "location": "KAMUKUNJI",
    "sublocation": "EASTLEIGH",
    "address": "FROM RING ROAD NGARA CONNECT TO KINYANJUI ROAD - SCHOOL IS BEFORE THE KARIOKOR WWII COMMONWEALTH CEMETERY"
  },
  {
    "id": 88,
    "name": "BURUBURU I PRIMARY",
    "location": "KAMUKUNJI",
    "sublocation": "BAHATI",
    "address": "BURUBURU PHASE I OFF MUMIAS ROAD NEXT TO ORANGE HOUSE"
  },
  {
    "id": 89,
    "name": "ROYSAMBU PRIMARY",
    "location": "KASARANI",
    "sublocation": "KAHAWA",
    "address": "ZIMMERMAN"
  },
  {
    "id": 90,
    "name": "KAMITI PRIMARY",
    "location": "KASARANI",
    "sublocation": "KAHAWA",
    "address": "INSIDE KAMITI PRISONS"
},
{
    "id": 91,
    "name": "KAWAHA GARRISON PRIMARY",
    "location": "KASARANI",
    "sublocation": "KAHAWA",
    "address": "KAHAWA BARRACKS ALONG THIKA RD."
},
{
    "id": 92,
    "name": "GITHURAI PRIMARY",
    "location": "KASARANI",
    "sublocation": "KAHAWA",
    "address": "GITHURAI 45 ROUNDABOUT NEXT TO CCN STONE MARKET"
},
{
    "id": 93,
    "name": "GARDEN ESTATE PRIMARY",
    "location": "KASARANI",
    "sublocation": "KAHAWA",
    "address": "OFF THIKA RD. ON YOUR WAY TO WIDSOR"
},
{
    "id": 94,
    "name": "KENYATTA UNIVERSITY PRIMARY",
    "location": "KASARANI",
    "sublocation": "KAHAWA",
    "address": "INSIDE KENYATTA UNIVERSITY GROUNDS"
},
{
    "id": 95,
    "name": "MAHIGA PRIMARY",
    "location": "KASARANI",
    "sublocation": "KAHAWA",
    "address": "OPP. KAMITI PRISON BOUNDARY ON ENTRY TO KAHAWA WEST SHOPPING CENTRE"
},
{
    "id": 96,
    "name": "KIWANJA PRIMARY",
    "location": "KASARANI",
    "sublocation": "KAHAWA",
    "address": "NEXT TO KENYATTA UNIVERSITY NYAYO HOSTELS ON KIWANJA RD. OFF KAHAWA RD. AFTER FARMERS CHOICE"
},
{
    "id": 97,
    "name": "MARARUI PRIMARY",
    "location": "KASARANI",
    "sublocation": "KAHAWA",
    "address": "AT MARARUI VILLAGE NEXT TO THOME ESTATE OFF THIKA ROAD"
},
{
    "id": 98,
    "name": "NJATHAINI PRIMARY",
    "location": "KASARANI",
    "sublocation": "KAHAWA",
    "address": "NGOMONGO OPP. POLICE STATION OFF KAMITI ROAD"
},
{
    "id": 99,
    "name": "NGUNYUMU PRIMARY",
    "location": "KASARANI",
    "sublocation": "RUARAKA",
    "address": "KOROGOCHO SLUMS-NGOMONGO"
},
{
    "id": 100,
    "name": "MATHARE 4A PRIMARY",
    "location": "KASARANI",
    "sublocation": "RUARAKA",
    "address": "MATHARE 4A VILLAGE"
},
{
    "id": 101,
    "name": "THIKA ROAD PRIMARY",
    "location": "KASARANI",
    "sublocation": "RUARAKA",
    "address": "BETWEEN N.Y.S. & KENYA COLLEGE OFF THIKA RD."
},
{
    "id": 102,
    "name": "G.S.U. PRIMARY",
    "location": "KASARANI",
    "sublocation": "RUARAKA",
    "address": "G.S.U. HEADQUARTERS RUARAKA CAMP THIKA RD."
},
{
    "id": 103,
    "name": "DANIEL COMBONI PRIMARY",
    "location": "KASARANI",
    "sublocation": "RUARAKA",
    "address": "KOROGOCHO"
},
{
    "id": 104,
    "name": "MUTHAIGA PRIMARY",
    "location": "KASARANI",
    "sublocation": "RUARAKA",
    "address": "THIKA ROAD OPP. MATHARI HOSPITAL"
},
{
    "id": 105,
    "name": "MARURA PRIMARY",
    "location": "KASARANI",
    "sublocation": "RUARAKA",
    "address": "KARIOBANGI NORTH NEAR THE KARIOBANGI MARKET"
},
{
    "id": 106,
    "name": "M.M. CHANDARIA PRIMARY",
    "location": "KASARANI",
    "sublocation": "RUARAKA",
    "address": "BABA DOGO"
},
{
    "id": 107,
    "name": "KASARANI PRIMARY",
    "location": "KASARANI",
    "sublocation": "KAHAWA",
    "address": "KASARANI MWIKI RD. OPP. WARREN ENTERPRISES LTD."
},
{
    "id": 108,
    "name": "KARIOBANGI NORTH PRIMARY",
    "location": "KASARANI",
    "sublocation": "RUARAKA",
    "address": "KARIOBANGI NORTH NEAR CITY COUNCIL MARKET"
},
{
    "id": 109,
    "name": "MUREMA PRIMARY",
    "location": "KASARANI",
    "sublocation": "KAHAWA",
    "address": "KASARANI - HUNTERS"
},
{
    "id": 110,
    "name": "MATHARE NORTH PRIMARY SCHOOL",
    "location": "KASARANI",
    "sublocation": "RUARAKA",
    "address": "MATHARE NORTH AREA II"
},
{
    "id": 111,
    "name": "BABA DOGO PRIMARY SCHOOL",
    "location": "KASARANI",
    "sublocation": "RUARAKA",
    "address": "ALONG BABA DOGO ROAD, NEXT TO M.M. CHANDARIA PRY, OPPOSITE PREMIER FOOD INDUSTRIES"
},
{
    "id": 112,
    "name": "DRIVE-IN PRIMARY SCHOOL",
    "location": "KASARANI",
    "sublocation": "RUARAKA",
    "address": "MATHARE NORTH NEAR RUARAKA HIGH SCHOOL"
},
{
    "id": 113,
    "name": "TREESIDE SPECIAL SCHOOL",
    "location": "KASARANI",
    "sublocation": "KAHAWA",
    "address": "ON YOUR WAY TO STADIA HOTEL"
},
{
    "id": 114,
    "name": "KAREN 'C' PRIMARY",
    "location": "LANG'ATA",
    "sublocation": "KAREN",
    "address": "ALONG LANGATA RD."
},
{
    "id": 115,
    "name": "NGONG FOREST PRIMARY",
    "location": "LANG'ATA",
    "sublocation": "KAREN",
    "address": "NGONG ROAD WITHIN NGONG FOREST OPP. LENANA SCHOOL"
},
{
    "id": 116,
    "name": "ST. MARY'S KAREN PRIMARY",
    "location": "LANG'ATA",
    "sublocation": "KAREN",
    "address": "KAREN SHOPPING CENTRE ALONG LANGATA RD."
},
{
    "id": 117,
    "name": "AYANY PRIMARY",
    "location": "LANG'ATA",
    "sublocation": "KAREN",
    "address": "SARANG'OMBE WARD"
},
{
    "id": 118,
    "name": "LANGATA ROAD PRIMARY",
    "location": "LANG'ATA",
    "sublocation": "NAIROBI WEST",
    "address": "ALONG LANGATA RD."
},
{
    "id": 119,
    "name": "RAILA EDUCATION CENTRE",
    "location": "LANG'ATA",
    "sublocation": "KAREN",
    "address": "KISUMU NDOGO AREA ALONG RAILWAY LINE NEXT TO RAILA EDUCATIONAL CENTER"
},
{
    "id": 120,
    "name": "NGEI PRIMARY",
    "location": "LANG'ATA",
    "sublocation": "NAIROBI WEST",
    "address": "KITENGELA RD. MUGUMU"
},
{
    "id": 121,
    "name": "KONGONI PRIMARY",
    "location": "LANG'ATA",
    "sublocation": "NAIROBI WEST",
    "address": "SOUTH 'C'"
},
{
    "id": 122,
    "name": "LANGATA WEST PRIMARY",
    "location": "LANG'ATA",
    "sublocation": "NAIROBI WEST",
    "address": "OTIENDE SHOPPING CENTRE NEXT TO LANGATA HEALTH CENTRE"
},
{
    "id": 123,
    "name": "UHURU GARDENS PRIMARY",
    "location": "LANG'ATA",
    "sublocation": "NAIROBI WEST",
    "address": "LANGATA RD. OFF KITENGELA ROAD"
},
{
    "id": 124,
    "name": "MADARAKA PRIMARY SCHOOL",
    "location": "LANG'ATA",
    "sublocation": "NAIROBI WEST",
    "address": "IN MADARAKA ESTATE"
},
{
    "id": 125,
    "name": "OLYMPIC PRIMARY",
    "location": "LANG'ATA",
    "sublocation": "KAREN",
    "address": "KIBERA SLUMS, SARANG'OMBE NEXT TO RAILWAY LINE"
},
{
    "id": 126,
    "name": "LANGATA BARRACKS PRIMARY",
    "location": "LANG'ATA",
    "sublocation": "NAIROBI WEST",
    "address": "INSIDE THE LANGATA BARRACKS MILLATRY CAMP"
},
{
    "id": 127,
    "name": "KIBERA PRIMARY",
    "location": "LANG'ATA",
    "sublocation": "KAREN",
    "address": "KIBERA DRIVE - KARANJA ROAD"
},
{
    "id": 128,
    "name": "NAIROBI WEST DAY NUSERY",
    "location": "LANG'ATA",
    "sublocation": "NAIROBI WEST",
    "address": "NAIROBI WEST SHOPPING CENTRE NEXT TO UCHUMI SUPERMARKET - SOUTH 'B'"
},
{
    "id": 129,
    "name": "RABAI ROAD PRIMARY",
    "location": "MAKADARA",
    "sublocation": "BURUBURU",
    "address": "RABAI RD. OPP. METROPOLITAN HOSPITAL JERICHO MARKET"
},
{
    "id": 130,
    "name": "BARAKA PRIMARY",
    "location": "MAKADARA",
    "sublocation": "BURUBURU",
    "address": "BTW. BURUBURU PHASE V & III MUMIAS RD. NEAR BLESSED SACRAMENT CATHOLIC CHURCH"
},
{
    "id": 131,
    "name": "HARAMBEE PRIMARY",
    "location": "MAKADARA",
    "sublocation": "BURUBURU",
    "address": "HARAMBEE ESTATE MUMBI RD. OFF RABAI ROAD"
},
{
    "id": 132,
    "name": "OFAFA JERICHO PRIMARY",
    "location": "MAKADARA",
    "sublocation": "BURUBURU",
    "address": "JERICHO ESTATE"
},
{
    "id": 133,
    "name": "ST. MICHAEL'S PRIMARY",
    "location": "MAKADARA",
    "sublocation": "BURUBURU",
    "address": "ALONG NILE ROAD OFF JOGOO RD."
},
{
    "id": 134,
    "name": "ST. ANNE'S PRIMARY",
    "location": "MAKADARA",
    "sublocation": "BURUBURU",
    "address": "NEXT TO GOVERNMENT QUARTERS JOGOO RD."
},
{
    "id": 135,
    "name": "DR. KRAPF PRIMARY",
    "location": "MAKADARA",
    "sublocation": "BURUBURU",
    "address": "MARINGO OFAFA ESTATE RUAKA STREET"
},
{
    "id": 136,
    "name": "JOGOO ROAD PRIMARY",
    "location": "MAKADARA",
    "sublocation": "BURUBURU",
    "address": "ALONG JOGOO ROAD"
},
{
    "id": 137,
    "name": "ST. PAUL'S PRIMARY",
    "location": "MAKADARA",
    "sublocation": "BURUBURU",
    "address": "MBOTELA ESTATE"
},
{
    "id": 138,
    "name": "MARTIN LUTHER PRIMARY",
    "location": "MAKADARA",
    "sublocation": "BURUBURU",
    "address": "MAKADARA HAMZA"
},
{
    "id": 139,
    "name": "MARIAKANI PRIMARY",
    "location": "MAKADARA",
    "sublocation": "VIWANDA",
    "address": "MARIAKANI ESTATE SOUTH 'B'"
},
{
    "id": 140,
    "name": "STAR OF HOPE LUNGA LUNGA",
    "location": "MAKADARA",
    "sublocation": "VIWANDA",
    "address": "LUNGA LUNGA"
},
{
    "id": 141,
    "name": "JOSEPH APUDO PRIMARY",
    "location": "MAKADARA",
    "sublocation": "VIWANDA",
    "address": "MAKONGENI RAILWAY QUARTERS"
},
{
    "id": 142,
    "name": "MAKONGENI PRIMARY",
    "location": "MAKADARA",
    "sublocation": "VIWANDA",
    "address": "ALONG JOGOO RD. WITHIN MAKONGENI RAILWAY QUARTERS"
},
{
    "id": 143,
    "name": "OUR LADY OF MERCY SOUTH 'B'",
    "location": "MAKADARA",
    "sublocation": "VIWANDA",
    "address": "SOUTH 'B' NEAR QUEEN OF PEACE CHURCH"
},
{
    "id": 144,
    "name": "PLAINSVIEW PRIMARY",
    "location": "MAKADARA",
    "sublocation": "VIWANDA",
    "address": "SOUTH 'B'"
},
{
    "id": 145,
    "name": "ST. ELIZABETH LUNGA LUNGA",
    "location": "MAKADARA",
    "sublocation": "VIWANDA",
    "address": "ALONG LUNGA LUNGA RD. NEAR MAREBA COMPANY IN LUNGA LUNGA SLUM"
},
{
    "id": 146,
    "name": "ST. BAKHITA PRIMARY",
    "location": "MAKADARA",
    "sublocation": "VIWANDA",
    "address": "INDUSTRIAL AREA - OPP. EXPRESS"
},
{
    "id": 147,
    "name": "MUKURU PRIMARY",
    "location": "MAKADARA",
    "sublocation": "VIWANDA",
    "address": "INDUSTRIAL AREA - KAYABA VILLAGE"
},
{
    "id": 148,
    "name": "NAIROBI SOUTH PRIMARY",
    "location": "MAKADARA",
    "sublocation": "VIWANDA",
    "address": "SOUTH 'B' OPP. MARIAKANI COTTAGE NEXT TO O.L.M. PRIMARY SCHOOL"
},
{
    "id": 149,
    "name": "NILE ROAD SPECIAL SCHOOL",
    "location": "MAKADARA",
    "sublocation": "BURUBURU",
    "address": "MARINGO ESTATE ALONG NILE RD - ON JOGOO ROAD"
},
{
    "id": 150,
    "name": "ST. JOHN'S PRIMARY",
    "location": "MAKADARA",
    "sublocation": "VIWANDA",
    "address": "ALONG JOGOO RD. MAZIWA STAGE OPP. KOBIL PETROL STATION OFF KILIMA MBOGO STREET"
},
{
    "id": 151,
    "name": "BIDII PRIMARY",
    "location": "MAKADARA",
    "sublocation": "BURUBURU",
    "address": "BURUBURU SHOPPING CENTRE ALONG MUMIAS ROAD"
},
{
    "id": 152,
    "name": "KALOLENI PRIMARY",
    "location": "MAKADARA",
    "sublocation": "VIWANDA",
    "address": "KALOLENI ESTATE"
},
{
    "id": 153,
    "name": "ST. PATRICK'S PRIMARY SCHOOL",
    "location": "MAKADARA",
    "sublocation": "BURUBURU",
    "address": "MARINGO ESTATE 200m EAST OF MAKADARA D.Cs OFFICE"
},
{
    "id": 154,
    "name": "TANA DAY NURSERY",
    "location": "MAKADARA",
    "sublocation": "BURUBURU",
    "address": "JERICHO - LUMUMBA"
},
{
    "id": 155,
    "name": "NJORO CLOSE DAY NURSERY SCHOOL",
    "location": "MAKADARA",
    "sublocation": "BURUBURU",
    "address": "JERICHO"
},
{
    "id": 156,
    "name": "OFAFA DAY NURSERY",
    "location": "MAKADARA",
    "sublocation": "BURUBURU",
    "address": "MARINGO"
},
{
    "id": 157,
    "name": "KALOLENI DAY NURSERY",
    "location": "MAKADARA",
    "sublocation": "VIWANDA",
    "address": "KALOLENI ESTATE - JOGOO ROAD"
},
{
    "id": 158,
    "name": "MBOTELA DAY NURSERY",
    "location": "MAKADARA",
    "sublocation": "BURUBURU",
    "address": "MBOTELA ESTATE- BEHIND THE HALL, FROM JOGOO ROAD"
},
{
    "id": 159,
    "name": "ST. CATHERINE'S PRIMARY",
    "location": "MAKADARA",
    "sublocation": "VIWANDA",
    "address": "ON DUNGA ROAD NEAR KENYA INSTITUTE OF MASS COMMUNICATION"
},
{
    "id": 160,
    "name": "CANON APOLO PRIMARY",
    "location": "MAKADARA",
    "sublocation": "BURUBURU",
    "address": "ON DUNGA ROAD OPPOSITE MATER HOSPITAL"
},
{
    "id": 161,
    "name": "RIVER BANK PRIMARY",
    "location": "STAREHE",
    "sublocation": "CENTRAL",
    "address": "GAUTAMA RAMESH RD. IN NGARA OFF. MURANG'A RD. BTW. NGARA SECONDARY AND MURANG'A RD. PRY."
},
{
    "id": 162,
    "name": "PUMWANI PRIMARY",
    "location": "STAREHE",
    "sublocation": "CENTRAL",
    "address": "PUMWANI HOSPITAL GROUNDS OFF LANDHIES RD."
},
{
    "id": 163,
    "name": "DR. RIBEIRO PARKLANDS",
    "location": "STAREHE",
    "sublocation": "CENTRAL",
    "address": "PARK RD. OPPOSITE ST. ANDREW'S CHURCH"
},
{
    "id": 164,
    "name": "ST. TERESA'S PRIMARY",
    "location": "STAREHE",
    "sublocation": "CENTRAL",
    "address": "SHETH PANDYA BLDG. C/O RACECOURSE & MURANG'A RD. NEXT TO S.S. PETER & PAUL'S CHURCH"
},
{
    "id": 165,
    "name": "ST. ANNE'S LIOKIMU PRIMARY",
    "location": "STAREHE",
    "sublocation": "CENTRAL",
    "address": "SHETH PANDYA BLDG. OFF MURANG'A RD. OPPOSITE STAR CINEMA"
},
{
    "id": 166,
    "name": "ST. ANN'S FRERE TOWN",
    "location": "STAREHE",
    "sublocation": "CENTRAL",
    "address": "FRERE RD. OFF. NGARA RD."
},
{
    "id": 167,
    "name": "ST. TERESA'S PRIMARY EASTLEIGH",
    "location": "STAREHE",
    "sublocation": "CENTRAL",
    "address": "BEHIND BEGROU BATA, BEGROU AREA OFF. GEN. WARUINGE RD. KABETE ROAD"
},
{
    "id": 168,
    "name": "JOHNSON NYAGAH PRIMARY",
    "location": "STAREHE",
    "sublocation": "CENTRAL",
    "address": "BAHATI ESTATE NEXT TO P.C.E.A. BAHATI CHURCH"
},
{
    "id":169,
    "name": "ST. TERESA'S PRIMARY EASTLEIGH 1",
    "location": "STAREHE",
    "sublocation": "CENTRAL",
    "address": "BEHIND BEGROU BATA OFF GENERAL WARUINGE ROAD"
},
{
    "id": 170,
    "name": "ST. JOSEPHS PRIMARY EASTLEIGH",
    "location": "STAREHE",
    "sublocation": "CENTRAL",
    "address": "OFF GENERAL WARUINGE ROAD"
},
{
    "id": 171,
    "name": "NAIROBI MUSLIM ACADEMY",
    "location": "STAREHE",
    "sublocation": "CENTRAL",
    "address": "BEHIND ST. TERESA'S EASTLEIGH"
},
{
    "id": 172,
    "name": "PRESBYTERIAN PRIMARY",
    "location": "STAREHE",
    "sublocation": "CENTRAL",
    "address": "ST. ANDREWS CHURCH COMPOUND C/O MURANGA ROAD & PARKLANDS ROAD"
},
{
    "id": 173,
    "name": "RACECOURSE PRIMARY",
    "location": "STAREHE",
    "sublocation": "CENTRAL",
    "address": "OPPOSITE RACECOURSE SECONDARY SCHOOL MURANG'A RD."
},
{
    "id": 174,
    "name": "ST. THERESA'S PRIMARY",
    "location": "STAREHE",
    "sublocation": "CENTRAL",
    "address": "C/O NGARA RD. & MURANG'A RD. BEHIND WAMBUGU HOUSE"
},
{
    "id": 175,
    "name": "M.P. SHAH PRIMARY",
    "location": "STAREHE",
    "sublocation": "CENTRAL",
    "address": "ALONG JAMES GICHURU RD. NEXT TO M.P. SHAH HOSPITAL"
},
{
    "id": 176,
    "name": "PRESBYTERIAN PRIMARY SCHOOL",
    "location": "STAREHE",
    "sublocation": "CENTRAL",
    "address": "C/O MURANG'A RD. & PARKLANDS RD. OPPOSITE ST. ANDREW'S CHURCH"
},
{
    "id": 177,
    "name": "SAFARI PRIMARY",
    "location": "STAREHE",
    "sublocation": "CENTRAL",
    "address": "OPPOSITE M.P. SHAH HOSPITAL OFF JAMES GICHURU RD."
},
{
    "id": 178,
    "name": "ST. MARTINS PRIMARY",
    "location": "STAREHE",
    "sublocation": "CENTRAL",
    "address": "PARKLANDS AREA NEXT TO PARKLANDS PRIMARY"
},
{
    "id": 179,
    "name": "AGA KHAN PRIMARY",
    "location": "STAREHE",
    "sublocation": "CENTRAL",
    "address": "OPP. AGA KHAN HOSPITAL THIRD PARKLANDS AVE."
},
{
    "id": 180,
    "name": "HIGHRIDGE PRIMARY",
    "location": "STAREHE",
    "sublocation": "CENTRAL",
    "address": "HIGHRIDGE AREA C/O MURANG'A RD. & PARKLANDS RD."
},
{
    "id": 181,
    "name": "DEMPSEY ESTATE PRIMARY",
    "location": "STAREHE",
    "sublocation": "CENTRAL",
    "address": "OFF MP SHAH HOSPITAL AREA"
},
{
    "id": 182,
    "name": "BISHOP GATIMU NGANDU PRIMARY",
    "location": "STAREHE",
    "sublocation": "CENTRAL",
    "address": "DEMPSEY ESTATE OFF MP SHAH HOSPITAL AREA"
},
{
    "id": 183,
    "name": "THE AGA KHAN ACADEMY",
    "location": "STAREHE",
    "sublocation": "CENTRAL",
    "address": "THIRD PARKLANDS AVENUE OPPOSITE AGA KHAN HOSPITAL"
},
{
    "id": 184,
    "name": "NYOTA INTERGRATED",
    "location": "STAREHE",
    "sublocation": "CENTRAL",
    "address": "NAIROBI CLUB C/O KIPANDE ROAD & HARAMBEE AVENUE"
},
{
    "id": 185,
    "name": "ST. KIZITO PRIMARY",
    "location": "STAREHE",
    "sublocation": "CENTRAL",
    "address": "DEMPSEY ESTATE"
},

  {
    "id": 186,
    "name": "C.G.H.U. PRIMARY",
    "location": "STAREHE",
    "sublocation": "CENTRAL",
    "address": "TOWN CENTRE - RONALD NGALA STREET AND VYOMA STREET"
  },
  {
    "id": 187,
    "name": "JUJA ROAD PRIMARY",
    "location": "STAREHE",
    "sublocation": "JUJA ROAD",
    "address": "PANGANI - HOMBE ROAD"
  },
  {
    "id": 188,
    "name": "PUMWANI PRIMARY SCHOOL",
    "location": "STAREHE",
    "sublocation": "CENTRAL",
    "address": "PUMWANI"
  },
  {
    "id": 189,
    "name": "CENTRAL DAY CURSERY",
    "location": "STAREHE",
    "sublocation": "CENTRAL",
    "address": "CITY CENTRE NEAR CASINO CLINIC, NDUBERI LANE"
  },
  {
    "id": 190,
    "name": "PARKLANDS DAY NURSERY",
    "location": "STAREHE",
    "sublocation": "CENTRAL",
    "address": "PARKLANDS ALONG FOREST ROAD"
  },
  {
    "id": 191,
    "name": "NGARA EAST DAY NURSERY",
    "location": "STAREHE",
    "sublocation": "CENTRAL",
    "address": "PARKROAD BETWEEN NGARA HEALTH CLINIC AND RAILWAY QUARTERS"
  },
  {
    "id": 192,
    "name": "STAREHE DAY NURSERY",
    "location": "STAREHE",
    "sublocation": "JUJA ROAD",
    "address": "KARIOKOR MARKET TO GIKOMBA MARKET- KINYANJUI ROAD"
  },
  {
    "id": 193,
    "name": "ZIWANI DAY NURSERY",
    "location": "STAREHE",
    "sublocation": "ZIWANI",
    "address": "ZIWANI ESTATE OPPOSITE ZIWANI WARD OFFICE"
  },
  {
    "id": 194,
    "name": "DAIMA PRIMARY",
    "location": "STAREHE",
    "sublocation": "JUJA ROAD",
    "address": "NEAR KENYA ASSEMBLY OF GOD CHURCH HURUMA ALONG JUJA ROAD"
  },
  {
    "id": 195,
    "name": "MATHARE TECHNICAL SPECIAL",
    "location": "STAREHE",
    "sublocation": "JUJA ROAD",
    "address": "ALONG JUJA ROAD AFTER EASTLEIGH SECOND AVENUE BEFORE REACHING THE WATER KIOSK"
  },
  {
    "id": 196,
    "name": "KABETE VET LAB PRIMARY",
    "location": "WESTLANDS",
    "sublocation": "KILIMANI UTHIRU",
    "address": "NEXT TO KABETE POLICE STATION OPP. ST. JOSEPH ACK CHURCH"
  },
  {
    "id": 197,
    "name": "KIHUMBUINI PRIMARY",
    "location": "WESTLANDS",
    "sublocation": "KILIMANI",
    "address": "KANGEMI"
  },
  {
    "id": 198,
    "name": "NAIROBI PRIMARY",
    "location": "WESTLANDS",
    "sublocation": "KILIMANI",
    "address": "MAMLAKA OFF NYERERE RD."
  },
  {
    "id": 199,
    "name": "MILIMANI PRIMARY",
    "location": "WESTLANDS",
    "sublocation": "KILIMANI",
    "address": "KILIMANI ON KIRICHWA ROAD"
  },
  {
    "id": 200,
    "name": "LAVINGTON PRIMARY SCHOOL",
    "location": "WESTLANDS",
    "sublocation": "KILIMANI",
    "address": "LAVINGTON MUGUMO ROAD"
  },
  {
    "id": 201,
    "name": "STATE HOUSE PRIMARY",
    "location": "WESTLANDS",
    "sublocation": "KILIMANI",
    "address": "KILIMANI AREA ABORETUM ROAD"
  },
  {
    "id": 202,
    "name": "KILELESHWA PRIMARY",
    "location": "WESTLANDS",
    "sublocation": "KILIMANI",
    "address": "ALONG MANDERA RD. NEXT TO KILELESHWA POLICE STATION GICHURU RD."
  },
  {
    "id": 203,
    "name": "MUTHANGARI PRIMARY",
    "location": "WESTLANDS",
    "sublocation": "KILIMANI",
    "address": "JAMES GICHURU RD. MBAMBANE RD LAVINGTON"
  },
  {
    "id": 204,
    "name": "NEW KIHUMBUINI PRIMARY",
    "location": "WESTLANDS",
    "sublocation": "KILIMANI",
    "address": "KANGEMI SHOPPING CENTRE ALONG WAIYAKI WAY"
  },
  {
    "id": 205,
    "name": "KILIMANI PRIMARY",
    "location": "WESTLANDS",
    "sublocation": "KILIMANI",
    "address": "KILIMANI - ARKWING KHODEK ROAD"
  },
  {
    "id": 206,
    "name": "AGA KHAN PRIMARY",
    "location": "WESTLANDS",
    "sublocation": "PARKLANDS",
    "address": "5TH PARKLANDS ALONG LIMURU RD. OPP. CITY PARK HAWKERS MKT"
  },
  {
    "id": 207,
    "name": "FARASI LANE PRIMARY",
    "location": "WESTLANDS",
    "sublocation": "PARKLANDS",
    "address": "ALONG LOWER KABETE ROAD"
  },
  {
    "id": 208,
    "name": "VISA OSHWAL PRIMARY - NAIROBI",
    "location": "WESTLANDS",
    "sublocation": "PARKLANDS",
    "address": "WESTLANDS MPAKA ROAD"
  },
  {
    "id": 209,
    "name": "BOHRA PRIMARY SCHOOL",
    "location": "WESTLANDS",
    "sublocation": "PARKLANDS",
    "address": "WESTLANDS BROOKESIDE DRIVE"
  },
  {
    "id": 210,
    "name": "KABETE REHABILITATION SCHOOL",
    "location": "WESTLANDS",
    "sublocation": "PARKLANDS",
    "address": "LOWER KABETE RD. 1KM IMMEDIATELY AFTER LOWER KABETE CAMPUS FROM TOWN / OR ON LOWER KABETE ROAD 200 METRES AFTER K.I.A. FROM NAIROBI TOWARDS WANGIGE"
  },
  {
    "id": 211,
    "name": "HOSPITAL HILL PRIMARY",
    "location": "WESTLANDS",
    "sublocation": "PARKLANDS",
    "address": "PARKLANDS ROAD"
  },
  {
    "id": 212,
    "name": "HIGHRIDGE PRIMARY",
    "location": "WESTLANDS",
    "sublocation": "PARKLANDS",
    "address": "4TH PARKLANDS AVENUE OPP. DIAMOND PLAZA"
  },
  {
    "id": 213,
    "name": "JACARANDA SPECIAL SCHOOL",
    "location": "WESTLANDS",
    "sublocation": "PARKLANDS",
    "address": "KILELESHWA - KISII RD. OFF SIAYA RD. OFF OTHAYA RD NEXT TO KENTON COLLEGE"
  },
  {
    "id": 214,
    "name": "NORTH HIGHRIDGE PRIMARY",
    "location": "WESTLANDS",
    "sublocation": "PARKLANDS",
    "address": "6TH PARKLANDS NEAR KESI COLLEGE"
  },
  {
    "id": 215,
    "name": "MUGUGA GREEN PRIMARY",
    "location": "WESTLANDS",
    "sublocation": "PARKLANDS",
    "address": "WAIYAKI WAY"
  },
  {
    "id": 216,
    "name": "WESTLANDS PRIMARY",
    "location": "WESTLANDS",
    "sublocation": "PARKLANDS",
    "address": "WESTLANDS - SCHOOL LANE NEAR SARIT CENTRE"
  },
  {
    "id": 217,
    "name": "KARURA FOREST PRIMARY",
    "location": "WESTLANDS",
    "sublocation": "PARKLANDS",
    "address": "KARURA FOREST HEAD OFFICES - KIAMBU ROAD"
  },
  {
    "id": 218,
    "name": "CHELETA PRIMARY",
    "location": "WESTLANDS",
    "sublocation": "PARKLANDS",
    "address": "RUNDA ESTATE"
  },
  {
    "id": 219,
    "name": "LOWER KABETE PRIMARY",
    "location": "WESTLANDS",
    "sublocation": "PARKLANDS",
    "address": "LOWER KABETE RD. NEXT TO K.I.A."
  },
  {
    "id": 220,
    "name": "KANGEMI PRIMARY",
    "location": "WESTLANDS",
    "sublocation": "KILIMANI",
    "address": "KANGEMI, GICHAGI ALONG THIONG'O ROAD"
  },
  {
    "id": 221,
    "name": "ST. GEORGE'S PRIMARY",
    "location": "WESTLANDS",
    "sublocation": "KILIMANI",
    "address": "DENIS PRITT ROAD AFTER STATE HOUSE"
  },
  {
    "id": 222,
    "name": "LORESHO PRIMARY",
    "location": "WESTLANDS",
    "sublocation": "PARKLANDS",
    "address": "LORESHO RIDGE - KITSURU WARD"
  },
  {
    "id": 223,
    "name": "STATE HOUSE DAY NURSERY",
    "location": "WESTLANDS",
    "sublocation": "KILIMANI",
    "address": "STATE HOUSE ROAD, NEXT TO STATE HOUSE PRIMARY SCHOOL"
  },
  {
    "id": 224,
    "name": "KILELESHWA DAY NURSERY",
    "location": "WESTLANDS",
    "sublocation": "KILIMANI",
    "address": "KILELESHWA ESTATE NEAR KILELESHWA POLICE STATION"
  },
  {
    "id": 225,
    "name": "LADY NORTHEY DAY NURSERY",
    "location": "WESTLANDS",
    "sublocation": "KILIMANI",
    "address": "NEXT TO MILIMANI A.I.C. CHURCH ALONG STATE HOUSE ROAD"
  }
]
}